{"businesses": [{"id": "eEUJ8kJNsN75kB6d87lUJA", "alias": "taq-taqueria-restaurant-and-bar-ann-arbor", "name": "TAQ - Taqueria Restaurant & Bar", "image_url": "https://s3-media3.fl.yelpcdn.com/bphoto/p6dyHB8l0hFuzz-ewdG0Xg/o.jpg", "is_closed": false, "url": "https://www.yelp.com/biz/taq-taqueria-restaurant-and-bar-ann-arbor?adjust_creative=nmoxxYN1lX0K_3vfM1t8hg&utm_campaign=yelp_api_v3&utm_medium=api_v3_business_search&utm_source=nmoxxYN1lX0K_3vfM1t8hg", "review_count": 173, "categories": [{"alias": "tacos", "title": "Tacos"}, {"alias": "latin", "title": "Latin American"}, {"alias": "asianfusion", "title": "Asian Fusion"}], "rating": 4.0, "coordinates": {"latitude": 42.2794213, "longitude": -83.7483554}, "transactions": ["pickup", "delivery"], "price": "$$", "location": {"address1": "106 E Liberty St", "address2": "", "address3": null, "city": "Ann Arbor", "zip_code": "48104", "country": "US", "state": "MI", "display_address": ["106 E Liberty St", "Ann Arbor, MI 48104"]}, "phone": "+17343696922", "display_phone": "(734) 369-6922", "distance": 1531.402241858343}, {"id": "0BS-tP3sXZh5Bir6CQDT0A", "alias": "condado-tacos-ann-arbor", "name": "Condado Tacos", "image_url": "https://s3-media1.fl.yelpcdn.com/bphoto/uQHg8A2CUDtWpAehmDsFkQ/o.jpg", "is_closed": false, "url": "https://www.yelp.com/biz/condado-tacos-ann-arbor?adjust_creative=nmoxxYN1lX0K_3vfM1t8hg&utm_campaign=yelp_api_v3&utm_medium=api_v3_business_search&utm_source=nmoxxYN1lX0K_3vfM1t8hg", "review_count": 59, "categories": [{"alias": "tacos", "title": "Tacos"}, {"alias": "bars", "title": "Bars"}], "rating": 3.0, "coordinates": {"latitude": 42.27959617025012, "longitude": -83.7438133}, "transactions": ["pickup", "delivery"], "location": {"address1": "401 E Liberty St 200", "address2": "Ste 200", "address3": null, "city": "Ann Arbor", "zip_code": "48104", "country": "US", "state": "MI", "display_address": ["401 E Liberty St 200", "Ste 200", "Ann Arbor, MI 48104"]}, "phone": "+17343693172", "display_phone": "(734) 369-3172", "distance": 1291.8630422335732}, {"id": "LND8d0yL5WQtEmLMrq0KDQ", "alias": "chapala-mexican-restaurant-ann-arbor", "name": "Chapala Mexican Restaurant", "image_url": "https://s3-media4.fl.yelpcdn.com/bphoto/rn0x_aQ0cKRNmtfnHMbUKw/o.jpg", "is_closed": false, "url": "https://www.yelp.com/biz/chapala-mexican-restaurant-ann-arbor?adjust_creative=nmoxxYN1lX0K_3vfM1t8hg&utm_campaign=yelp_api_v3&utm_medium=api_v3_business_search&utm_source=nmoxxYN1lX0K_3vfM1t8hg", "review_count": 158, "categories": [{"alias": "tacos", "title": "Tacos"}, {"alias": "bars", "title": "Bars"}], "rating": 4.0, "coordinates": {"latitude": 42.28281, "longitude": -83.74881}, "transactions": ["pickup"], "price": "$$", "location": {"address1": "211 N Main St", "address2": null, "address3": "", "city": "Ann Arbor", "zip_code": "48104", "country": "US", "state": "MI", "display_address": ["211 N Main St", "Ann Arbor, MI 48104"]}, "phone": "+17349961456", "display_phone": "(734) 996-1456", "distance": 1330.147093758353}, {"id": "C8IeolsUWU0MWFY0aCEdRg", "alias": "1923-ann-arbor", "name": "1923", "image_url": "https://s3-media3.fl.yelpcdn.com/bphoto/chingDS5bwnSpyvB7rMweQ/o.jpg", "is_closed": false, "url": "https://www.yelp.com/biz/1923-ann-arbor?adjust_creative=nmoxxYN1lX0K_3vfM1t8hg&utm_campaign=yelp_api_v3&utm_medium=api_v3_business_search&utm_source=nmoxxYN1lX0K_3vfM1t8hg", "review_count": 1, "categories": [{"alias": "tacos", "title": "Tacos"}, {"alias": "foodtrucks", "title": "Food Trucks"}], "rating": 5.0, "coordinates": {"latitude": 42.28348, "longitude": -83.75104}, "transactions": ["pickup", "delivery"], "location": {"address1": "320 Miller Ave", "address2": null, "address3": "", "city": "Ann Arbor", "zip_code": "48103", "country": "US", "state": "MI", "display_address": ["320 Miller Ave", "Ann Arbor, MI 48103"]}, "phone": "+17349340969", "display_phone": "(734) 934-0969", "distance": 1475.842023744301}, {"id": "niDtW169QN_iy7Ob_H16YQ", "alias": "tacos-el-mariachi-loco-ann-arbor", "name": "Tacos El Mariachi Loco", "image_url": "https://s3-media4.fl.yelpcdn.com/bphoto/dOd3te-f4oJqGn8px4Qyhg/o.jpg", "is_closed": false, "url": "https://www.yelp.com/biz/tacos-el-mariachi-loco-ann-arbor?adjust_creative=nmoxxYN1lX0K_3vfM1t8hg&utm_campaign=yelp_api_v3&utm_medium=api_v3_business_search&utm_source=nmoxxYN1lX0K_3vfM1t8hg", "review_count": 27, "categories": [{"alias": "foodtrucks", "title": "Food Trucks"}, {"alias": "mexican", "title": "Mexican"}], "rating": 4.5, "coordinates": {"latitude": 42.251513, "longitude": -83.780028}, "transactions": ["pickup", "delivery"], "location": {"address1": "2140 Oak Valley Dr", "address2": null, "address3": "", "city": "Ann Arbor", "zip_code": "48103", "country": "US", "state": "MI", "display_address": ["2140 Oak Valley Dr", "Ann Arbor, MI 48103"]}, "phone": "+17347735879", "display_phone": "(734) 773-5879", "distance": 5574.446168264807}, {"id": "GPzt1fncpK_Foi_DBYlYBg", "alias": "isalita-ann-arbor", "name": "Isalita", "image_url": "https://s3-media2.fl.yelpcdn.com/bphoto/-pUpanzI7N1j5yPlwkprMw/o.jpg", "is_closed": false, "url": "https://www.yelp.com/biz/isalita-ann-arbor?adjust_creative=nmoxxYN1lX0K_3vfM1t8hg&utm_campaign=yelp_api_v3&utm_medium=api_v3_business_search&utm_source=nmoxxYN1lX0K_3vfM1t8hg", "review_count": 577, "categories": [{"alias": "mexican", "title": "Mexican"}], "rating": 4.0, "coordinates": {"latitude": 42.2794618, "longitude": -83.7444065}, "transactions": ["delivery"], "price": "$$", "location": {"address1": "341 E Liberty St", "address2": "Ste 2", "address3": "", "city": "Ann Arbor", "zip_code": "48104", "country": "US", "state": "MI", "display_address": ["341 E Liberty St", "Ste 2", "Ann Arbor, MI 48104"]}, "phone": "+17342137400", "display_phone": "(734) 213-7400", "distance": 1331.8901635157233}, {"id": "XOs9NgF-PTgX1WhIQiMrqA", "alias": "la-torre-taqueria-ypsilanti", "name": "La Torre Taqueria", "image_url": "https://s3-media4.fl.yelpcdn.com/bphoto/bQcN-a2Oel2rUPbs58uRUg/o.jpg", "is_closed": false, "url": "https://www.yelp.com/biz/la-torre-taqueria-ypsilanti?adjust_creative=nmoxxYN1lX0K_3vfM1t8hg&utm_campaign=yelp_api_v3&utm_medium=api_v3_business_search&utm_source=nmoxxYN1lX0K_3vfM1t8hg", "review_count": 177, "categories": [{"alias": "mexican", "title": "Mexican"}], "rating": 4.5, "coordinates": {"latitude": 42.247067, "longitude": -83.6380079}, "transactions": ["pickup", "delivery"], "price": "$", "location": {"address1": "1525 Washtenaw Ave", "address2": "", "address3": "", "city": "Ypsilanti", "zip_code": "48197", "country": "US", "state": "MI", "display_address": ["1525 Washtenaw Ave", "Ypsilanti, MI 48197"]}, "phone": "+17349057220", "display_phone": "(734) 905-7220", "distance": 9259.721760887549}, {"id": "8nKu9TATiJyjhYvijD7vIw", "alias": "tmaz-taqueria-ann-arbor", "name": "Tmaz Taqueria", "image_url": "https://s3-media3.fl.yelpcdn.com/bphoto/kdA8_VSIjH4hMi0FV6ITVA/o.jpg", "is_closed": false, "url": "https://www.yelp.com/biz/tmaz-taqueria-ann-arbor?adjust_creative=nmoxxYN1lX0K_3vfM1t8hg&utm_campaign=yelp_api_v3&utm_medium=api_v3_business_search&utm_source=nmoxxYN1lX0K_3vfM1t8hg", "review_count": 440, "categories": [{"alias": "mexican", "title": "Mexican"}], "rating": 4.0, "coordinates": {"latitude": 42.2449934, "longitude": -83.6965964}, "transactions": ["pickup", "delivery"], "price": "$", "location": {"address1": "3182 Packard St", "address2": "", "address3": "", "city": "Ann Arbor", "zip_code": "48108", "country": "US", "state": "MI", "display_address": ["3182 Packard St", "Ann Arbor, MI 48108"]}, "phone": "+17344776089", "display_phone": "(734) 477-6089", "distance": 5891.425357017254}, {"id": "T7q_UCRZlbImpETHxXGWnw", "alias": "chelas-ann-arbor", "name": "Chela's", "image_url": "https://s3-media1.fl.yelpcdn.com/bphoto/lgq0IhODJNHl7tHyYtRvAg/o.jpg", "is_closed": false, "url": "https://www.yelp.com/biz/chelas-ann-arbor?adjust_creative=nmoxxYN1lX0K_3vfM1t8hg&utm_campaign=yelp_api_v3&utm_medium=api_v3_business_search&utm_source=nmoxxYN1lX0K_3vfM1t8hg", "review_count": 421, "categories": [{"alias": "mexican", "title": "Mexican"}, {"alias": "gluten_free", "title": "Gluten-Free"}], "rating": 4.5, "coordinates": {"latitude": 42.2736697, "longitude": -83.7797882}, "transactions": ["pickup", "delivery"], "price": "$", "location": {"address1": "693 S Maple Rd", "address2": "", "address3": "", "city": "Ann Arbor", "zip_code": "48103", "country": "US", "state": "MI", "display_address": ["693 S Maple Rd", "Ann Arbor, MI 48103"]}, "phone": "+17343326055", "display_phone": "(734) 332-6055", "distance": 4020.270034280777}, {"id": "pMeWiT61d3nQvFsZQGtpWA", "alias": "hola-seoul-ann-arbor", "name": "Hola Seoul", "image_url": "https://s3-media2.fl.yelpcdn.com/bphoto/ROZ29yrMg0Rsq-hRKTLVFQ/o.jpg", "is_closed": false, "url": "https://www.yelp.com/biz/hola-seoul-ann-arbor?adjust_creative=nmoxxYN1lX0K_3vfM1t8hg&utm_campaign=yelp_api_v3&utm_medium=api_v3_business_search&utm_source=nmoxxYN1lX0K_3vfM1t8hg", "review_count": 133, "categories": [{"alias": "korean", "title": "Korean"}, {"alias": "mexican", "title": "Mexican"}], "rating": 4.0, "coordinates": {"latitude": 42.278875, "longitude": -83.740044}, "transactions": ["pickup", "delivery"], "location": {"address1": "715 N University Ave", "address2": "", "address3": null, "city": "Ann Arbor", "zip_code": "48104", "country": "US", "state": "MI", "display_address": ["715 N University Ave", "Ann Arbor, MI 48104"]}, "phone": "+17343696418", "display_phone": "(734) 369-6418", "distance": 1223.1666127765543}, {"id": "1b9Xu7N2pkqf2zBiLQAQQw", "alias": "cantina-ann-arbor", "name": "Cantina", "image_url": "https://s3-media3.fl.yelpcdn.com/bphoto/CqvVc2r11cD_qYtBXNRulQ/o.jpg", "is_closed": false, "url": "https://www.yelp.com/biz/cantina-ann-arbor?adjust_creative=nmoxxYN1lX0K_3vfM1t8hg&utm_campaign=yelp_api_v3&utm_medium=api_v3_business_search&utm_source=nmoxxYN1lX0K_3vfM1t8hg", "review_count": 94, "categories": [{"alias": "bars", "title": "Bars"}, {"alias": "mexican", "title": "Mexican"}, {"alias": "tapasmallplates", "title": "Tapas/Small Plates"}], "rating": 3.5, "coordinates": {"latitude": 42.27479, "longitude": -83.73483}, "transactions": ["delivery"], "price": "$", "location": {"address1": "1140 S University Ave", "address2": null, "address3": null, "city": "Ann Arbor", "zip_code": "48104", "country": "US", "state": "MI", "display_address": ["1140 S University Ave", "Ann Arbor, MI 48104"]}, "phone": "+17342223715", "display_phone": "(734) 222-3715", "distance": 1610.6185890864776}, {"id": "p9gF1jPXdvLQFu0gAzd8eg", "alias": "cantina-taqueria-ann-arbor", "name": "Cantina Taqueria", "image_url": "https://s3-media3.fl.yelpcdn.com/bphoto/E8zHySqhe9mgirdVgYyzWg/o.jpg", "is_closed": false, "url": "https://www.yelp.com/biz/cantina-taqueria-ann-arbor?adjust_creative=nmoxxYN1lX0K_3vfM1t8hg&utm_campaign=yelp_api_v3&utm_medium=api_v3_business_search&utm_source=nmoxxYN1lX0K_3vfM1t8hg", "review_count": 1, "categories": [{"alias": "tacos", "title": "Tacos"}, {"alias": "bars", "title": "Bars"}, {"alias": "tapasmallplates", "title": "Tapas/Small Plates"}], "rating": 5.0, "coordinates": {"latitude": 42.27487541194779, "longitude": -83.7348139}, "transactions": [], "location": {"address1": "1140 South University Ave", "address2": null, "address3": "", "city": "Ann Arbor", "zip_code": "48104", "country": "US", "state": "MI", "display_address": ["1140 South University Ave", "Ann Arbor, MI 48104"]}, "phone": "+17342223715", "display_phone": "(734) 222-3715", "distance": 1596.8523227608714}, {"id": "oeAIPzIs3Xfq0hIFDnogsg", "alias": "cosa-sabrosa-ann-arbor", "name": "Cosa Sabrosa", "image_url": "https://s3-media2.fl.yelpcdn.com/bphoto/lzL9VnPlGi9rvGjYRrG6qA/o.jpg", "is_closed": false, "url": "https://www.yelp.com/biz/cosa-sabrosa-ann-arbor?adjust_creative=nmoxxYN1lX0K_3vfM1t8hg&utm_campaign=yelp_api_v3&utm_medium=api_v3_business_search&utm_source=nmoxxYN1lX0K_3vfM1t8hg", "review_count": 27, "categories": [{"alias": "foodtrucks", "title": "Food Trucks"}, {"alias": "mexican", "title": "Mexican"}, {"alias": "latin", "title": "Latin American"}], "rating": 4.0, "coordinates": {"latitude": 42.27199, "longitude": -83.77442}, "transactions": [], "location": {"address1": "2070 W Stadium Blvd", "address2": "", "address3": null, "city": "Ann Arbor", "zip_code": "48109", "country": "US", "state": "MI", "display_address": ["2070 W Stadium Blvd", "Ann Arbor, MI 48109"]}, "phone": "+17346782620", "display_phone": "(734) 678-2620", "distance": 3778.6058421083735}, {"id": "VbVPfQ_o4P6Loa_Wtgbzig", "alias": "los-mejores-tacos-ann-arbor", "name": "Los Mejores Tacos", "image_url": "https://s3-media2.fl.yelpcdn.com/bphoto/n1neJuK0TlCU7tnHJeC69Q/o.jpg", "is_closed": false, "url": "https://www.yelp.com/biz/los-mejores-tacos-ann-arbor?adjust_creative=nmoxxYN1lX0K_3vfM1t8hg&utm_campaign=yelp_api_v3&utm_medium=api_v3_business_search&utm_source=nmoxxYN1lX0K_3vfM1t8hg", "review_count": 2, "categories": [{"alias": "tacos", "title": "Tacos"}, {"alias": "foodtrucks", "title": "Food Trucks"}], "rating": 5.0, "coordinates": {"latitude": 42.2499876, "longitude": -83.66154379999999}, "transactions": [], "location": {"address1": "4970 Washtenaw Ave", "address2": "", "address3": null, "city": "Ann Arbor", "zip_code": "48108", "country": "US", "state": "MI", "display_address": ["4970 Washtenaw Ave", "Ann Arbor, MI 48108"]}, "phone": "+13132638868", "display_phone": "(313) 263-8868", "distance": 7458.14659919001}, {"id": "uTMqhmpgfpDMLN3W3YvMeQ", "alias": "frita-batidos-ann-arbor", "name": "Frita Batidos", "image_url": "https://s3-media2.fl.yelpcdn.com/bphoto/K-fwSzAZlwKwkceDQIeO0A/o.jpg", "is_closed": false, "url": "https://www.yelp.com/biz/frita-batidos-ann-arbor?adjust_creative=nmoxxYN1lX0K_3vfM1t8hg&utm_campaign=yelp_api_v3&utm_medium=api_v3_business_search&utm_source=nmoxxYN1lX0K_3vfM1t8hg", "review_count": 2082, "categories": [{"alias": "cuban", "title": "Cuban"}, {"alias": "burgers", "title": "Burgers"}], "rating": 4.5, "coordinates": {"latitude": 42.2803651, "longitude": -83.7491532}, "transactions": ["pickup", "delivery"], "price": "$$", "location": {"address1": "117 W Washington St", "address2": "", "address3": "", "city": "Ann Arbor", "zip_code": "48104", "country": "US", "state": "MI", "display_address": ["117 W Washington St", "Ann Arbor, MI 48104"]}, "phone": "+17347612882", "display_phone": "(734) 761-2882", "distance": 1543.9486137066265}, {"id": "Cd__o-hrZTkWCSmnAR3nGQ", "alias": "tmaz-taqueria-dexter-ann-arbor", "name": "Tmaz Taqueria Dexter", "image_url": "https://s3-media4.fl.yelpcdn.com/bphoto/Exyu2hCY6PWvL3lw15Whaw/o.jpg", "is_closed": false, "url": "https://www.yelp.com/biz/tmaz-taqueria-dexter-ann-arbor?adjust_creative=nmoxxYN1lX0K_3vfM1t8hg&utm_campaign=yelp_api_v3&utm_medium=api_v3_business_search&utm_source=nmoxxYN1lX0K_3vfM1t8hg", "review_count": 8, "categories": [{"alias": "mexican", "title": "Mexican"}], "rating": 5.0, "coordinates": {"latitude": 42.285557160750606, "longitude": -83.78155011165676}, "transactions": ["pickup", "delivery"], "location": {"address1": "2529 Dexter Ave", "address2": "", "address3": null, "city": "Ann Arbor", "zip_code": "48103", "country": "US", "state": "MI", "display_address": ["2529 Dexter Ave", "Ann Arbor, MI 48103"]}, "phone": "+17347807225", "display_phone": "(734) 780-7225", "distance": 3847.1781792411157}, {"id": "4IWTdYSTfLZoIq6gXGt9zw", "alias": "bao-boys-ann-arbor", "name": "Bao Boys", "image_url": "https://s3-media4.fl.yelpcdn.com/bphoto/RvyYlC4ZeWnN_qHOwvG7jA/o.jpg", "is_closed": false, "url": "https://www.yelp.com/biz/bao-boys-ann-arbor?adjust_creative=nmoxxYN1lX0K_3vfM1t8hg&utm_campaign=yelp_api_v3&utm_medium=api_v3_business_search&utm_source=nmoxxYN1lX0K_3vfM1t8hg", "review_count": 83, "categories": [{"alias": "foodtrucks", "title": "Food Trucks"}, {"alias": "asianfusion", "title": "Asian Fusion"}, {"alias": "korean", "title": "Korean"}], "rating": 5.0, "coordinates": {"latitude": 42.257715, "longitude": -83.728419}, "transactions": ["pickup", "delivery"], "price": "$$", "location": {"address1": "1928 Packard St", "address2": null, "address3": "", "city": "Ann Arbor", "zip_code": "48104", "country": "US", "state": "MI", "display_address": ["1928 Packard St", "Ann Arbor, MI 48104"]}, "phone": "", "display_phone": "", "distance": 3547.050354154414}, {"id": "aOc-9F6gewlgdJyShVkEbA", "alias": "taco-king-ann-arbor", "name": "Taco King", "image_url": "https://s3-media2.fl.yelpcdn.com/bphoto/-C8FSxfNjjJKXPfCqZG2tQ/o.jpg", "is_closed": false, "url": "https://www.yelp.com/biz/taco-king-ann-arbor?adjust_creative=nmoxxYN1lX0K_3vfM1t8hg&utm_campaign=yelp_api_v3&utm_medium=api_v3_business_search&utm_source=nmoxxYN1lX0K_3vfM1t8hg", "review_count": 151, "categories": [{"alias": "mexican", "title": "Mexican"}], "rating": 3.5, "coordinates": {"latitude": 42.2737399, "longitude": -83.7771999}, "transactions": ["pickup", "delivery"], "price": "$", "location": {"address1": "2231 W Liberty St", "address2": "", "address3": "", "city": "Ann Arbor", "zip_code": "48103", "country": "US", "state": "MI", "display_address": ["2231 W Liberty St", "Ann Arbor, MI 48103"]}, "phone": "+17345855796", "display_phone": "(734) 585-5796", "distance": 3868.8905713126305}, {"id": "t7zMY-nrQo09-UGtxOIugg", "alias": "tios-restaurant-ann-arbor-2", "name": "Tio's Restaurant", "image_url": "https://s3-media1.fl.yelpcdn.com/bphoto/zv0QXFUz7Fb-DvYji5-npQ/o.jpg", "is_closed": false, "url": "https://www.yelp.com/biz/tios-restaurant-ann-arbor-2?adjust_creative=nmoxxYN1lX0K_3vfM1t8hg&utm_campaign=yelp_api_v3&utm_medium=api_v3_business_search&utm_source=nmoxxYN1lX0K_3vfM1t8hg", "review_count": 332, "categories": [{"alias": "mexican", "title": "Mexican"}], "rating": 3.0, "coordinates": {"latitude": 42.2794575244188, "longitude": -83.7438514083624}, "transactions": ["pickup", "delivery"], "price": "$$", "location": {"address1": "401 E Liberty St", "address2": "", "address3": "", "city": "Ann Arbor", "zip_code": "48104", "country": "US", "state": "MI", "display_address": ["401 E Liberty St", "Ann Arbor, MI 48104"]}, "phone": "+17347616650", "display_phone": "(734) 761-6650", "distance": 1292.8937693884268}, {"id": "79HDXRRjngoDqJ4re5kd5w", "alias": "minys-mexican-restaurant-ypsilanti", "name": "Miny's Mexican Restaurant", "image_url": "https://s3-media1.fl.yelpcdn.com/bphoto/wRPHrrCzQ2H3Wck731v3zQ/o.jpg", "is_closed": false, "url": "https://www.yelp.com/biz/minys-mexican-restaurant-ypsilanti?adjust_creative=nmoxxYN1lX0K_3vfM1t8hg&utm_campaign=yelp_api_v3&utm_medium=api_v3_business_search&utm_source=nmoxxYN1lX0K_3vfM1t8hg", "review_count": 140, "categories": [{"alias": "tacos", "title": "Tacos"}], "rating": 4.5, "coordinates": {"latitude": 42.25061, "longitude": -83.65686}, "transactions": ["pickup", "delivery"], "price": "$", "location": {"address1": "2866 Washtenaw Rd", "address2": null, "address3": "", "city": "Ypsilanti", "zip_code": "48197", "country": "US", "state": "MI", "display_address": ["2866 Washtenaw Rd", "Ypsilanti, MI 48197"]}, "phone": "+17344340857", "display_phone": "(734) 434-0857", "distance": 7774.235675168732}], "total": 168, "region": {"center": {"longitude": -83.73504638671875, "latitude": 42.289235235728626}}}