[{"id": "wR66dolc4UxgDgaAh-botg", "alias": "china-flavor-lansing", "name": "China Flavor", "image_url": "https://s3-media4.fl.yelpcdn.com/bphoto/UCKUPMHeb3YV2gaTSQklkg/o.jpg", "is_closed": false, "url": "https://www.yelp.com/biz/china-flavor-lansing?adjust_creative=nmoxxYN1lX0K_3vfM1t8hg&utm_campaign=yelp_api_v3&utm_medium=api_v3_business_search&utm_source=nmoxxYN1lX0K_3vfM1t8hg", "review_count": 73, "categories": [{"alias": "chinese", "title": "Chinese"}, {"alias": "soup", "title": "Soup"}], "rating": 3.0, "coordinates": {"latitude": 42.7336332564919, "longitude": -84.521395303309}, "transactions": ["delivery", "pickup"], "price": "$", "location": {"address1": "2033 East Michigan Ave", "address2": "", "address3": "", "city": "Lansing", "zip_code": "48912", "country": "US", "state": "MI", "display_address": ["2033 East Michigan Ave", "Lansing, MI 48912"]}, "phone": "+15177211083", "display_phone": "(517) 721-1083", "distance": 3903.5642934757484}, {"id": "NCMFwvnJFkcnDAPKMrRe7A", "alias": "hibachi-grill-and-sushi-buffet-lansing", "name": "Hibachi Grill and Sushi Buffet", "image_url": "https://s3-media3.fl.yelpcdn.com/bphoto/GVoPLNFbQ1Xt_jJpfHB5hg/o.jpg", "is_closed": false, "url": "https://www.yelp.com/biz/hibachi-grill-and-sushi-buffet-lansing?adjust_creative=nmoxxYN1lX0K_3vfM1t8hg&utm_campaign=yelp_api_v3&utm_medium=api_v3_business_search&utm_source=nmoxxYN1lX0K_3vfM1t8hg", "review_count": 56, "categories": [{"alias": "chinese", "title": "Chinese"}], "rating": 3.0, "coordinates": {"latitude": 42.7409051, "longitude": -84.6329955}, "transactions": ["delivery"], "price": "$$", "location": {"address1": "5837 W Saginaw Hwy", "address2": "", "address3": "", "city": "Lansing", "zip_code": "48917", "country": "US", "state": "MI", "display_address": ["5837 W Saginaw Hwy", "Lansing, MI 48917"]}, "phone": "+15178869999", "display_phone": "(517) 886-9999", "distance": 5506.146151412171}, {"id": "WhfFAJyHcmJNO3jM5YLbyQ", "alias": "empire-szechuan-lansing", "name": "Empire Szechuan", "image_url": "https://s3-media3.fl.yelpcdn.com/bphoto/VxZTo-1hCGBrJLSfiL8rlA/o.jpg", "is_closed": false, "url": "https://www.yelp.com/biz/empire-szechuan-lansing?adjust_creative=nmoxxYN1lX0K_3vfM1t8hg&utm_campaign=yelp_api_v3&utm_medium=api_v3_business_search&utm_source=nmoxxYN1lX0K_3vfM1t8hg", "review_count": 31, "categories": [{"alias": "chinese", "title": "Chinese"}], "rating": 3.5, "coordinates": {"latitude": 42.7334412435046, "longitude": -84.5532439021694}, "transactions": ["delivery", "pickup"], "price": "$", "location": {"address1": "115 Washington Sq", "address2": "", "address3": "", "city": "Lansing", "zip_code": "48933", "country": "US", "state": "MI", "display_address": ["115 Washington Sq", "Lansing, MI 48933"]}, "phone": "+15177021338", "display_phone": "(517) 702-1338", "distance": 1380.6400841905624}, {"id": "2gOH7HGzPopH8mSx1lrDlQ", "alias": "east-cafe-east-lansing-2", "name": "East Cafe", "image_url": "https://s3-media2.fl.yelpcdn.com/bphoto/BeMHtswl_dYJFn90tFc_HQ/o.jpg", "is_closed": false, "url": "https://www.yelp.com/biz/east-cafe-east-lansing-2?adjust_creative=nmoxxYN1lX0K_3vfM1t8hg&utm_campaign=yelp_api_v3&utm_medium=api_v3_business_search&utm_source=nmoxxYN1lX0K_3vfM1t8hg", "review_count": 64, "categories": [{"alias": "chinese", "title": "Chinese"}], "rating": 3.5, "coordinates": {"latitude": 42.732032, "longitude": -84.470771}, "transactions": ["delivery", "pickup"], "price": "$$", "location": {"address1": "1001 E Grand River Ave", "address2": "", "address3": "", "city": "East Lansing", "zip_code": "48823", "country": "US", "state": "MI", "display_address": ["1001 E Grand River Ave", "East Lansing, MI 48823"]}, "phone": "+15178536828", "display_phone": "(517) 853-6828", "distance": 8001.753022955323}, {"id": "9w05rHr0_eWYojQ3XYHiqw", "alias": "asian-gourmet-lansing", "name": "Asian Gourmet", "image_url": "https://s3-media1.fl.yelpcdn.com/bphoto/H_VpU86zeBE0kOHmA_hngw/o.jpg", "is_closed": false, "url": "https://www.yelp.com/biz/asian-gourmet-lansing?adjust_creative=nmoxxYN1lX0K_3vfM1t8hg&utm_campaign=yelp_api_v3&utm_medium=api_v3_business_search&utm_source=nmoxxYN1lX0K_3vfM1t8hg", "review_count": 56, "categories": [{"alias": "chinese", "title": "Chinese"}, {"alias": "thai", "title": "Thai"}], "rating": 4.0, "coordinates": {"latitude": 42.7337379490909, "longitude": -84.5222168808169}, "transactions": ["delivery", "pickup"], "price": "$$", "location": {"address1": "2003 E Michigan Ave", "address2": "", "address3": "", "city": "Lansing", "zip_code": "48912", "country": "US", "state": "MI", "display_address": ["2003 E Michigan Ave", "Lansing, MI 48912"]}, "phone": "+15173676068", "display_phone": "(517) 367-6068", "distance": 3839.0612305037307}, {"id": "z7xOKslUVDiflpe_duf17Q", "alias": "chef-gong-lansing-3", "name": "Chef Gong", "image_url": "https://s3-media4.fl.yelpcdn.com/bphoto/w3r3Os3u3dD1j3eyhQtr-Q/o.jpg", "is_closed": false, "url": "https://www.yelp.com/biz/chef-gong-lansing-3?adjust_creative=nmoxxYN1lX0K_3vfM1t8hg&utm_campaign=yelp_api_v3&utm_medium=api_v3_business_search&utm_source=nmoxxYN1lX0K_3vfM1t8hg", "review_count": 20, "categories": [{"alias": "chinese", "title": "Chinese"}], "rating": 4.0, "coordinates": {"latitude": 42.73896, "longitude": -84.50887}, "transactions": ["delivery"], "location": {"address1": "521 N Clippert St", "address2": "", "address3": null, "city": "Lansing", "zip_code": "48912", "country": "US", "state": "MI", "display_address": ["521 N Clippert St", "Lansing, MI 48912"]}, "phone": "+15177080616", "display_phone": "(517) 708-0616", "distance": 5032.70105626027}, {"id": "Fku_4AzREJ4JNcJDD0IfUg", "alias": "ming-dynasty-lansing", "name": "Ming Dynasty", "image_url": "https://s3-media2.fl.yelpcdn.com/bphoto/1pnSCrWfRwgwWFpOvW69FA/o.jpg", "is_closed": false, "url": "https://www.yelp.com/biz/ming-dynasty-lansing?adjust_creative=nmoxxYN1lX0K_3vfM1t8hg&utm_campaign=yelp_api_v3&utm_medium=api_v3_business_search&utm_source=nmoxxYN1lX0K_3vfM1t8hg", "review_count": 23, "categories": [{"alias": "chinese", "title": "Chinese"}, {"alias": "thai", "title": "Thai"}], "rating": 4.0, "coordinates": {"latitude": 42.68326564280107, "longitude": -84.51518534791131}, "transactions": ["delivery", "pickup"], "price": "$", "location": {"address1": "2515 E Jolly Rd", "address2": "", "address3": "", "city": "Lansing", "zip_code": "48910", "country": "US", "state": "MI", "display_address": ["2515 E Jolly Rd", "Lansing, MI 48910"]}, "phone": "+15173942288", "display_phone": "(517) 394-2288", "distance": 6645.041414273018}, {"id": "TF4vFoALXoOSGAwR4XhdEw", "alias": "bamboo-garden-grand-ledge", "name": "Bamboo Garden", "image_url": "https://s3-media1.fl.yelpcdn.com/bphoto/GlTakm3Kye-aE5weeJEB3w/o.jpg", "is_closed": false, "url": "https://www.yelp.com/biz/bamboo-garden-grand-ledge?adjust_creative=nmoxxYN1lX0K_3vfM1t8hg&utm_campaign=yelp_api_v3&utm_medium=api_v3_business_search&utm_source=nmoxxYN1lX0K_3vfM1t8hg", "review_count": 24, "categories": [{"alias": "chinese", "title": "Chinese"}], "rating": 3.5, "coordinates": {"latitude": 42.7429114, "longitude": -84.7398637}, "transactions": ["delivery"], "price": "$", "location": {"address1": "520 S Clinton St", "address2": "", "address3": "", "city": "Grand Ledge", "zip_code": "48837", "country": "US", "state": "MI", "display_address": ["520 S Clinton St", "Grand Ledge, MI 48837"]}, "phone": "+15176228818", "display_phone": "(517) 622-8818", "distance": 14105.170361282913}, {"id": "7IhkJp8sB3kO_047DWf-xw", "alias": "fortune-house-lansing", "name": "Fortune House", "image_url": "https://s3-media3.fl.yelpcdn.com/bphoto/WX9-XnGi99XmC-iBcMmrCg/o.jpg", "is_closed": false, "url": "https://www.yelp.com/biz/fortune-house-lansing?adjust_creative=nmoxxYN1lX0K_3vfM1t8hg&utm_campaign=yelp_api_v3&utm_medium=api_v3_business_search&utm_source=nmoxxYN1lX0K_3vfM1t8hg", "review_count": 35, "categories": [{"alias": "chinese", "title": "Chinese"}, {"alias": "thai", "title": "Thai"}], "rating": 3.5, "coordinates": {"latitude": 42.740352, "longitude": -84.6260829}, "transactions": ["delivery"], "price": "$", "location": {"address1": "5407 W Saginaw Hwy", "address2": "", "address3": "", "city": "Lansing", "zip_code": "48917", "country": "US", "state": "MI", "display_address": ["5407 W Saginaw Hwy", "Lansing, MI 48917"]}, "phone": "+15173218808", "display_phone": "(517) 321-8808", "distance": 4879.4872748282005}, {"id": "aQr-rYsV1dkB0wB2OHC9YA", "alias": "hongs-cafe-east-lansing", "name": "Hong's Cafe", "image_url": "https://s3-media4.fl.yelpcdn.com/bphoto/pvX_CHy050Du3mKJJmFlmA/o.jpg", "is_closed": false, "url": "https://www.yelp.com/biz/hongs-cafe-east-lansing?adjust_creative=nmoxxYN1lX0K_3vfM1t8hg&utm_campaign=yelp_api_v3&utm_medium=api_v3_business_search&utm_source=nmoxxYN1lX0K_3vfM1t8hg", "review_count": 18, "categories": [{"alias": "bubbletea", "title": "Bubble Tea"}, {"alias": "chinese", "title": "Chinese"}], "rating": 4.0, "coordinates": {"latitude": 42.757143, "longitude": -84.4640809}, "transactions": ["delivery"], "price": "$$", "location": {"address1": "3030 E Lake Lansing Rd", "address2": "", "address3": "", "city": "East Lansing", "zip_code": "48823", "country": "US", "state": "MI", "display_address": ["3030 E Lake Lansing Rd", "East Lansing, MI 48823"]}, "phone": "+15173326688", "display_phone": "(517) 332-6688", "distance": 9120.31542435394}, {"id": "wp9bxsI03sHLMRozOytZ-Q", "alias": "everyday-authentic-chinese-cuisine-east-lansing", "name": "Everyday Authentic Chinese Cuisine", "image_url": "https://s3-media4.fl.yelpcdn.com/bphoto/-HW4rHJtI5Qajnye9J5hBw/o.jpg", "is_closed": false, "url": "https://www.yelp.com/biz/everyday-authentic-chinese-cuisine-east-lansing?adjust_creative=nmoxxYN1lX0K_3vfM1t8hg&utm_campaign=yelp_api_v3&utm_medium=api_v3_business_search&utm_source=nmoxxYN1lX0K_3vfM1t8hg", "review_count": 79, "categories": [{"alias": "chinese", "title": "Chinese"}], "rating": 4.0, "coordinates": {"latitude": 42.730334304168, "longitude": -84.4634694121178}, "transactions": ["delivery"], "price": "$$", "location": {"address1": "1375 E Grand River", "address2": "", "address3": "", "city": "East Lansing", "zip_code": "48823", "country": "US", "state": "MI", "display_address": ["1375 E Grand River", "East Lansing, MI 48823"]}, "phone": "+15173371882", "display_phone": "(517) 337-1882", "distance": 8592.814304416248}, {"id": "jDO7O7dGf1oLQD_CqWTxUA", "alias": "royal-pot-east-lansing-2", "name": "Royal Pot", "image_url": "https://s3-media4.fl.yelpcdn.com/bphoto/mjPFo16pbY8kmC4MscLMNg/o.jpg", "is_closed": false, "url": "https://www.yelp.com/biz/royal-pot-east-lansing-2?adjust_creative=nmoxxYN1lX0K_3vfM1t8hg&utm_campaign=yelp_api_v3&utm_medium=api_v3_business_search&utm_source=nmoxxYN1lX0K_3vfM1t8hg", "review_count": 69, "categories": [{"alias": "hotpot", "title": "Hot Pot"}], "rating": 4.0, "coordinates": {"latitude": 42.719489, "longitude": -84.461112}, "transactions": ["delivery", "pickup"], "price": "$$", "location": {"address1": "4750 S Hagadorn Rd", "address2": "Ste 40", "address3": null, "city": "East Lansing", "zip_code": "48823", "country": "US", "state": "MI", "display_address": ["4750 S Hagadorn Rd", "Ste 40", "East Lansing, MI 48823"]}, "phone": "+15174832780", "display_phone": "(517) 483-2780", "distance": 8833.59445677508}, {"id": "FftTdZSPeITjwC9bYx3Isw", "alias": "china-palace-ii-lansing", "name": "China Palace II", "image_url": "https://s3-media3.fl.yelpcdn.com/bphoto/R_RUL5v2-PTk902vVgoR4w/o.jpg", "is_closed": false, "url": "https://www.yelp.com/biz/china-palace-ii-lansing?adjust_creative=nmoxxYN1lX0K_3vfM1t8hg&utm_campaign=yelp_api_v3&utm_medium=api_v3_business_search&utm_source=nmoxxYN1lX0K_3vfM1t8hg", "review_count": 9, "categories": [{"alias": "chinese", "title": "Chinese"}], "rating": 4.0, "coordinates": {"latitude": 42.695, "longitude": -84.6033}, "transactions": ["delivery"], "price": "$", "location": {"address1": "3700 S Waverly Rd", "address2": "Ste G", "address3": "", "city": "Lansing", "zip_code": "48911", "country": "US", "state": "MI", "display_address": ["3700 S Waverly Rd", "Ste G", "Lansing, MI 48911"]}, "phone": "+15178873888", "display_phone": "(517) 887-3888", "distance": 4721.430611886925}, {"id": "jG9GmxiWP9aIQpyzCSqt_g", "alias": "panda-gourmet-lansing", "name": "Panda Gourmet", "image_url": "https://s3-media2.fl.yelpcdn.com/bphoto/tuQolstg9s8BFvHUaYl6tw/o.jpg", "is_closed": false, "url": "https://www.yelp.com/biz/panda-gourmet-lansing?adjust_creative=nmoxxYN1lX0K_3vfM1t8hg&utm_campaign=yelp_api_v3&utm_medium=api_v3_business_search&utm_source=nmoxxYN1lX0K_3vfM1t8hg", "review_count": 28, "categories": [{"alias": "szechuan", "title": "Szechuan"}], "rating": 4.0, "coordinates": {"latitude": 42.6669006, "longitude": -84.5438995}, "transactions": ["delivery"], "price": "$", "location": {"address1": "6250 S Cedar St", "address2": "", "address3": "", "city": "Lansing", "zip_code": "48911", "country": "US", "state": "MI", "display_address": ["6250 S Cedar St", "Lansing, MI 48911"]}, "phone": "+15173938881", "display_phone": "(517) 393-8881", "distance": 7121.130132312293}, {"id": "nCLaSSAJzJlpkqeCp1V9uA", "alias": "little-panda-chinese-restaurant-lansing", "name": "Little Panda Chinese Restaurant", "image_url": "https://s3-media2.fl.yelpcdn.com/bphoto/n7h7oR-13BrMXFy6f1t7Ew/o.jpg", "is_closed": false, "url": "https://www.yelp.com/biz/little-panda-chinese-restaurant-lansing?adjust_creative=nmoxxYN1lX0K_3vfM1t8hg&utm_campaign=yelp_api_v3&utm_medium=api_v3_business_search&utm_source=nmoxxYN1lX0K_3vfM1t8hg", "review_count": 67, "categories": [{"alias": "chinese", "title": "Chinese"}], "rating": 4.0, "coordinates": {"latitude": 42.7405608, "longitude": -84.6261979}, "transactions": ["delivery", "pickup"], "price": "$", "location": {"address1": "5439 W Saginaw Hwy", "address2": "", "address3": "", "city": "Lansing", "zip_code": "48917", "country": "US", "state": "MI", "display_address": ["5439 W Saginaw Hwy", "Lansing, MI 48917"]}, "phone": "+15173232450", "display_phone": "(517) 323-2450", "distance": 4917.468961198621}, {"id": "vBNWEG1sct6mmFc3mllwPA", "alias": "boiling-pots-east-lansing", "name": "Boiling Pots", "image_url": "https://s3-media4.fl.yelpcdn.com/bphoto/qodjCN3BOLwdhIBaP19rjg/o.jpg", "is_closed": false, "url": "https://www.yelp.com/biz/boiling-pots-east-lansing?adjust_creative=nmoxxYN1lX0K_3vfM1t8hg&utm_campaign=yelp_api_v3&utm_medium=api_v3_business_search&utm_source=nmoxxYN1lX0K_3vfM1t8hg", "review_count": 86, "categories": [{"alias": "chinese", "title": "Chinese"}, {"alias": "hotpot", "title": "Hot Pot"}, {"alias": "taiwanese", "title": "Taiwanese"}], "rating": 4.0, "coordinates": {"latitude": 42.72623, "longitude": -84.44801}, "transactions": ["delivery", "pickup"], "price": "$$", "location": {"address1": "2650 E Grand River Ave", "address2": "", "address3": "", "city": "East Lansing", "zip_code": "48823", "country": "US", "state": "MI", "display_address": ["2650 E Grand River Ave", "East Lansing, MI 48823"]}, "phone": "+15178891799", "display_phone": "(517) 889-1799", "distance": 9854.161659461644}, {"id": "m7O6ZFXNqmMSfUNXB7l2Yg", "alias": "naing-myanmar-family-restaurant-lansing", "name": "Naing Myanmar Family Restaurant", "image_url": "https://s3-media2.fl.yelpcdn.com/bphoto/oAWWq7OqHIdaoKYhQ3hsFw/o.jpg", "is_closed": false, "url": "https://www.yelp.com/biz/naing-myanmar-family-restaurant-lansing?adjust_creative=nmoxxYN1lX0K_3vfM1t8hg&utm_campaign=yelp_api_v3&utm_medium=api_v3_business_search&utm_source=nmoxxYN1lX0K_3vfM1t8hg", "review_count": 342, "categories": [{"alias": "burmese", "title": "Burmese"}, {"alias": "thai", "title": "Thai"}, {"alias": "malaysian", "title": "Malaysian"}], "rating": 4.5, "coordinates": {"latitude": 42.698443, "longitude": -84.548959}, "transactions": ["delivery", "pickup"], "price": "$$", "location": {"address1": "3308 S Cedar St", "address2": "Ste 3", "address3": "", "city": "Lansing", "zip_code": "48910", "country": "US", "state": "MI", "display_address": ["3308 S Cedar St", "Ste 3", "Lansing, MI 48910"]}, "phone": "+18576158393", "display_phone": "(857) 615-8393", "distance": 3689.2511619368947}, {"id": "wG9d3xbuRqv_q_zlMzWk5A", "alias": "charlie-kangs-east-lansing", "name": "Charlie Kang's", "image_url": "https://s3-media1.fl.yelpcdn.com/bphoto/avYNF3B5Bc6oDji7ZzkEaA/o.jpg", "is_closed": false, "url": "https://www.yelp.com/biz/charlie-kangs-east-lansing?adjust_creative=nmoxxYN1lX0K_3vfM1t8hg&utm_campaign=yelp_api_v3&utm_medium=api_v3_business_search&utm_source=nmoxxYN1lX0K_3vfM1t8hg", "review_count": 175, "categories": [{"alias": "chinese", "title": "Chinese"}, {"alias": "korean", "title": "Korean"}], "rating": 4.0, "coordinates": {"latitude": 42.73167050030105, "longitude": -84.47032223771986}, "transactions": ["delivery", "pickup"], "price": "$$", "location": {"address1": "127 E", "address2": null, "address3": "", "city": "East Lansing", "zip_code": "48823", "country": "US", "state": "MI", "display_address": ["127 E", "East Lansing, MI 48823"]}, "phone": "+15173324696", "display_phone": "(517) 332-4696", "distance": 8038.737887617349}, {"id": "amzEJY7ZRQGLjBbYl7Wiiw", "alias": "hong-kong-restaurant-lansing", "name": "Hong Kong Restaurant", "image_url": "https://s3-media3.fl.yelpcdn.com/bphoto/c1mIufCmNpfGLhdyFk-p-w/o.jpg", "is_closed": false, "url": "https://www.yelp.com/biz/hong-kong-restaurant-lansing?adjust_creative=nmoxxYN1lX0K_3vfM1t8hg&utm_campaign=yelp_api_v3&utm_medium=api_v3_business_search&utm_source=nmoxxYN1lX0K_3vfM1t8hg", "review_count": 142, "categories": [{"alias": "chinese", "title": "Chinese"}], "rating": 4.0, "coordinates": {"latitude": 42.73058, "longitude": -84.50938}, "transactions": ["delivery", "pickup"], "price": "$$", "location": {"address1": "315 S Homer St", "address2": "", "address3": "", "city": "Lansing", "zip_code": "48912", "country": "US", "state": "MI", "display_address": ["315 S Homer St", "Lansing, MI 48912"]}, "phone": "+15173325333", "display_phone": "(517) 332-5333", "distance": 4839.919530523462}, {"id": "0lKgAwG4PKfxbqzJOhCDlA", "alias": "cola-lansing", "name": "Cola", "image_url": "https://s3-media3.fl.yelpcdn.com/bphoto/QpsWSOCeBE_86tXNda8LFg/o.jpg", "is_closed": false, "url": "https://www.yelp.com/biz/cola-lansing?adjust_creative=nmoxxYN1lX0K_3vfM1t8hg&utm_campaign=yelp_api_v3&utm_medium=api_v3_business_search&utm_source=nmoxxYN1lX0K_3vfM1t8hg", "review_count": 1, "categories": [{"alias": "chinese", "title": "Chinese"}], "rating": 5.0, "coordinates": {"latitude": 42.7413305553655, "longitude": -84.5791462808848}, "transactions": [], "location": {"address1": "2010 W Saginaw St", "address2": "", "address3": null, "city": "Lansing", "zip_code": "48915", "country": "US", "state": "MI", "display_address": ["2010 W Saginaw St", "Lansing, MI 48915"]}, "phone": "+15177632228", "display_phone": "(517) 763-2228", "distance": 1683.6066222637855}]